$GNRMC,225902.03,V,,,,,,,051217,,,N*6E
$GNGGA,225902.03,,,,,0,00,99.99,,,,,,*75
$GNRMC,225903.00,V,,,,,,,051217,,,N*6C
$GNGGA,225903.00,,,,,0,00,99.99,,,,,,*77
$GNRMC,225904.00,V,,,,,,,051217,,,N*6B
$GNGGA,225904.00,,,,,0,00,99.99,,,,,,*70
$GNRMC,225905.00,V,,,,,,,051217,,,N*6A
$GNGGA,225905.00,,,,,0,00,99.99,,,,,,*71
$GNRMC,225906.00,V,,,,,,,051217,,,N*69
$GNGGA,225906.00,,,,,0,00,99.99,,,,,,*72
$GNRMC,225907.00,V,,,,,,,051217,,,N*68
$GNGGA,225907.00,,,,,0,00,99.99,,,,,,*73
$GNRMC,225908.00,V,,,,,,,051217,,,N*67
$GNGGA,225908.00,,,,,0,00,99.99,,,,,,*7C
$GNRMC,225909.00,V,,,,,,,051217,,,N*66
$GNGGA,225909.00,,,,,0,00,99.99,,,,,,*7D
$GNRMC,225910.00,V,,,,,,,051217,,,N*6E
$GNGGA,225910.00,,,,,0,00,99.99,,,,,,*75
$GNRMC,225911.00,V,,,,,,,051217,,,N*6F
$GNGGA,225911.00,,,,,0,00,99.99,,,,,,*74
$GNRMC,225912.00,V,,,,,,,051217,,,N*6C
$GNGGA,225912.00,,,,,0,00,99.99,,,,,,*77
$GNRMC,225913.00,V,,,,,,,051217,,,N*6D
$GNGGA,225913.00,,,,,0,00,99.99,,,,,,*76
$GNRMC,225914.00,V,,,,,,,051217,,,N*6A
$GNGGA,225914.00,,,,,0,00,99.99,,,,,,*71
$GNRMC,225915.00,V,,,,,,,051217,,,N*6B
$GNGGA,225915.00,,,,,0,00,99.99,,,,,,*70
$GNRMC,225916.00,V,,,,,,,051217,,,N*68
$GNGGA,225916.00,,,,,0,00,99.99,,,,,,*73
$GNRMC,225917.00,V,,,,,,,051217,,,N*69
$GNGGA,225917.00,,,,,0,00,99.99,,,,,,*72
$GNRMC,225918.00,V,,,,,,,051217,,,N*66
$GNGGA,225918.00,,,,,0,00,99.99,,,,,,*7D
$GNRMC,225919.00,V,,,,,,,051217,,,N*67
$GNGGA,225919.00,,,,,0,00,99.99,,,,,,*7C
$GNRMC,225920.00,V,,,,,,,051217,,,N*6D
$GNGGA,225920.00,,,,,0,00,99.99,,,,,,*76
$GNRMC,225921.00,V,,,,,,,051217,,,N*6C
$GNGGA,225921.00,,,,,0,00,99.99,,,,,,*77
$GNRMC,225922.00,V,,,,,,,051217,,,N*6F
$GNGGA,225922.00,,,,,0,00,99.99,,,,,,*74
$GNRMC,225923.00,V,,,,,,,051217,,,N*6E
$GNGGA,225923.00,,,,,0,00,99.99,,,,,,*75
$GNRMC,225924.00,V,,,,,,,051217,,,N*69
$GNGGA,225924.00,,,,,0,00,99.99,,,,,,*72
$GNRMC,225925.00,V,,,,,,,051217,,,N*68
$GNGGA,225925.00,,,,,0,00,99.99,,,,,,*73
$GNRMC,225925.97,V,,,,,,,051217,,,N*66
$GNGGA,225925.97,,,,,0,00,99.99,,,,,,*7D
$GNRMC,225927.00,V,,,,,,,051217,,,N*6A
$GNGGA,225927.00,,,,,0,00,99.99,,,,,,*71
$GNRMC,225928.00,V,,,,,,,051217,,,N*65
$GNGGA,225928.00,,,,,0,00,99.99,,,,,,*7E
$GNRMC,225929.00,V,,,,,,,051217,,,N*64
$GNGGA,225929.00,,,,,0,00,99.99,,,,,,*7F
$GNRMC,225930.00,V,,,,,,,051217,,,N*6C
$GNGGA,225930.00,,,,,0,00,99.99,,,,,,*77
$GNRMC,225934.00,V,,,,,,,051217,,,N*68
$GNGGA,225934.00,,,,,0,00,99.99,,,,,,*73
$GNRMC,225935.00,V,,,,,,,051217,,,N*69
$GNGGA,225935.00,,,,,0,00,99.99,,,,,,*72
$GNRMC,225936.00,V,,,,,,,051217,,,N*6A
$GNGGA,225936.00,,,,,0,00,99.99,,,,,,*71
$GNRMC,225937.00,V,,,,,,,051217,,,N*6B
$GNGGA,225937.00,,,,,0,00,99.99,,,,,,*70
$GNRMC,225938.00,V,,,,,,,051217,,,N*64
$GNGGA,225938.00,,,,,0,00,99.99,,,,,,*7F
$GNRMC,225939.00,A,3425.39704,S,14731.08388,E,0.071,,051217,,,A*71
$GNGGA,225939.00,3425.39704,S,14731.08388,E,1,04,5.90,280.4,M,12.9,M,,*57
$GNRMC,225940.00,A,3425.39671,S,14731.08402,E,0.697,,051217,,,A*77
$GNGGA,225940.00,3425.39671,S,14731.08402,E,1,04,5.90,280.5,M,12.9,M,,*5E
$GNRMC,225941.00,A,3425.39650,S,14731.08413,E,0.364,,051217,,,A*7C
$GNGGA,225941.00,3425.39650,S,14731.08413,E,1,04,5.90,280.3,M,12.9,M,,*5A
$GNRMC,225942.00,A,3425.39649,S,14731.08395,E,0.824,,051217,,,A*71
$GNGGA,225942.00,3425.39649,S,14731.08395,E,1,04,5.91,280.1,M,12.9,M,,*5B
$GNRMC,225943.00,A,3425.39676,S,14731.08273,E,0.193,,051217,,,A*70
$GNGGA,225943.00,3425.39676,S,14731.08273,E,1,04,5.91,280.3,M,12.9,M,,*5D
$GNRMC,225944.00,A,3425.39718,S,14731.08236,E,0.282,,051217,,,A*7C
$GNGGA,225944.00,3425.39718,S,14731.08236,E,1,04,5.91,279.0,M,12.9,M,,*57
$GNRMC,225945.00,A,3425.39687,S,14731.08290,E,0.219,,051217,,,A*74
$GNGGA,225945.00,3425.39687,S,14731.08290,E,1,04,5.91,278.4,M,12.9,M,,*58
$GNRMC,225946.00,A,3425.39669,S,14731.08317,E,0.171,,051217,,,A*74
$GNGGA,225946.00,3425.39669,S,14731.08317,E,1,04,5.92,278.5,M,12.9,M,,*57
$GNRMC,225947.00,A,3425.39674,S,14731.08320,E,0.414,,051217,,,A*7B
$GNGGA,225947.00,3425.39674,S,14731.08320,E,1,04,5.92,278.5,M,12.9,M,,*5E
$GNRMC,225948.00,A,3425.39658,S,14731.08340,E,0.519,,051217,,,A*70
$GNGGA,225948.00,3425.39658,S,14731.08340,E,1,04,5.92,279.0,M,12.9,M,,*5D
$GNRMC,225949.00,A,3425.39573,S,14731.08401,E,0.278,,051217,,,A*79
$GNGGA,225949.00,3425.39573,S,14731.08401,E,1,04,5.93,280.3,M,12.9,M,,*50
$GNRMC,225950.00,A,3425.39530,S,14731.08455,E,0.048,,051217,,,A*76
$GNGGA,225950.00,3425.39530,S,14731.08455,E,1,04,5.93,280.5,M,12.9,M,,*58
$GNRMC,225951.00,A,3425.39500,S,14731.08441,E,0.066,,051217,,,A*7D
$GNGGA,225951.00,3425.39500,S,14731.08441,E,1,04,5.93,280.8,M,12.9,M,,*52
$GNRMC,225952.00,A,3425.39476,S,14731.08436,E,0.027,,051217,,,A*7B
$GNGGA,225952.00,3425.39476,S,14731.08436,E,1,04,5.94,281.1,M,12.9,M,,*5E
$GNRMC,225953.00,A,3425.39452,S,14731.08440,E,0.341,,051217,,,A*7E
$GNGGA,225953.00,3425.39452,S,14731.08440,E,1,04,5.94,281.3,M,12.9,M,,*5A
$GNRMC,225954.00,A,3425.39432,S,14731.08456,E,0.405,,051217,,,A*7F
$GNGGA,225954.00,3425.39432,S,14731.08456,E,1,04,5.94,281.5,M,12.9,M,,*5A
$GNRMC,225955.00,A,3425.39403,S,14731.08497,E,0.433,,051217,,,A*74
$GNGGA,225955.00,3425.39403,S,14731.08497,E,1,04,5.95,281.5,M,12.9,M,,*55
$GNRMC,225956.00,A,3425.39380,S,14731.08521,E,0.021,,051217,,,A*70
$GNGGA,225956.00,3425.39380,S,14731.08521,E,1,04,5.95,281.7,M,12.9,M,,*54
$GNRMC,225957.00,A,3425.38988,S,14731.09064,E,0.075,,051217,,,A*76
$GNGGA,225957.00,3425.38988,S,14731.09064,E,1,07,1.24,280.9,M,12.9,M,,*51
$GNRMC,225958.00,A,3425.38957,S,14731.09084,E,0.112,,051217,,,A*75
$GNGGA,225958.00,3425.38957,S,14731.09084,E,1,07,1.24,281.5,M,12.9,M,,*5F
$GNRMC,225959.00,A,3425.38937,S,14731.09093,E,0.123,,051217,,,A*76
$GNGGA,225959.00,3425.38937,S,14731.09093,E,1,07,1.24,281.9,M,12.9,M,,*52
$GNRMC,230000.00,A,3425.38915,S,14731.09107,E,0.301,,051217,,,A*79
$GNGGA,230000.00,3425.38915,S,14731.09107,E,1,07,1.24,282.4,M,12.9,M,,*51
$GNRMC,230001.00,A,3425.38904,S,14731.09110,E,0.015,,051217,,,A*78
$GNGGA,230001.00,3425.38904,S,14731.09110,E,1,07,1.24,282.7,M,12.9,M,,*55
$GNRMC,230002.00,A,3425.38894,S,14731.09108,E,0.119,,051217,,,A*77
$GNGGA,230002.00,3425.38894,S,14731.09108,E,1,07,1.24,283.1,M,12.9,M,,*50
$GNRMC,230003.00,A,3425.38892,S,14731.09110,E,0.269,,051217,,,A*7D
$GNGGA,230003.00,3425.38892,S,14731.09110,E,1,07,1.23,283.0,M,12.9,M,,*58
$GNRMC,230004.00,A,3425.38885,S,14731.09106,E,0.293,,051217,,,A*7E
$GNGGA,230004.00,3425.38885,S,14731.09106,E,1,07,1.23,283.3,M,12.9,M,,*5D
$GNRMC,230005.00,A,3425.38879,S,14731.09103,E,0.356,,051217,,,A*71
$GNGGA,230005.00,3425.38879,S,14731.09103,E,1,07,1.23,283.4,M,12.9,M,,*5D
$GNRMC,230006.00,A,3425.38871,S,14731.09109,E,0.346,,051217,,,A*71
$GNGGA,230006.00,3425.38871,S,14731.09109,E,1,07,1.23,283.6,M,12.9,M,,*5E
$GNRMC,230007.00,A,3425.38864,S,14731.09117,E,0.200,,051217,,,A*78
$GNGGA,230007.00,3425.38864,S,14731.09117,E,1,07,1.23,284.0,M,12.9,M,,*55
$GNRMC,230008.00,A,3425.38863,S,14731.09131,E,0.218,,051217,,,A*7D
$GNGGA,230008.00,3425.38863,S,14731.09131,E,1,07,1.23,283.7,M,12.9,M,,*59
$GNRMC,230009.00,A,3425.38856,S,14731.09122,E,0.334,,051217,,,A*77
$GNGGA,230009.00,3425.38856,S,14731.09122,E,1,07,1.23,284.0,M,12.9,M,,*5C
$GNRMC,230010.00,A,3425.38860,S,14731.09115,E,0.155,,051217,,,A*7B
$GNGGA,230010.00,3425.38860,S,14731.09115,E,1,07,1.23,283.8,M,12.9,M,,*5A
$GNRMC,230011.00,A,3425.38864,S,14731.09116,E,0.189,,051217,,,A*7C
$GNGGA,230011.00,3425.38864,S,14731.09116,E,1,07,1.23,283.7,M,12.9,M,,*53
$GNRMC,230012.00,A,3425.38863,S,14731.09115,E,0.078,,051217,,,A*74
$GNGGA,230012.00,3425.38863,S,14731.09115,E,1,07,1.23,283.7,M,12.9,M,,*54
$GNRMC,230013.00,A,3425.38855,S,14731.09116,E,0.101,,051217,,,A*7C
$GNGGA,230013.00,3425.38855,S,14731.09116,E,1,07,1.23,283.9,M,12.9,M,,*5D
$GNRMC,230014.00,A,3425.38855,S,14731.09110,E,0.392,,051217,,,A*75
$GNGGA,230014.00,3425.38855,S,14731.09110,E,1,07,1.23,283.9,M,12.9,M,,*5C
$GNRMC,230015.00,A,3425.38850,S,14731.09131,E,0.254,,051217,,,A*79
$GNGGA,230015.00,3425.38850,S,14731.09131,E,1,07,1.23,283.4,M,12.9,M,,*56
$GNRMC,230016.00,A,3425.38861,S,14731.09140,E,0.043,,051217,,,A*7A
$GNGGA,230016.00,3425.38861,S,14731.09140,E,1,07,1.23,283.9,M,12.9,M,,*5C
$GNRMC,230017.00,A,3425.38844,S,14731.09134,E,0.092,,051217,,,A*73
$GNGGA,230017.00,3425.38844,S,14731.09134,E,1,07,1.23,284.4,M,12.9,M,,*53
$GNRMC,230018.00,A,3425.38842,S,14731.09130,E,0.030,,051217,,,A*76
$GNGGA,230018.00,3425.38842,S,14731.09130,E,1,07,1.23,284.5,M,12.9,M,,*5F
$GNRMC,230019.00,A,3425.38849,S,14731.09112,E,0.041,,051217,,,A*7A
$GNGGA,230019.00,3425.38849,S,14731.09112,E,1,07,1.23,284.4,M,12.9,M,,*54
$GNRMC,230020.00,A,3425.38854,S,14731.09102,E,0.124,,051217,,,A*7F
$GNGGA,230020.00,3425.38854,S,14731.09102,E,1,07,1.23,284.5,M,12.9,M,,*52
$GNRMC,230021.00,A,3425.38865,S,14731.09095,E,0.153,,051217,,,A*73
$GNGGA,230021.00,3425.38865,S,14731.09095,E,1,07,1.23,284.2,M,12.9,M,,*59
$GNRMC,230022.00,A,3425.38870,S,14731.09092,E,0.122,,051217,,,A*75
$GNGGA,230022.00,3425.38870,S,14731.09092,E,1,07,1.23,284.1,M,12.9,M,,*5A
$GNRMC,230023.00,A,3425.38870,S,14731.09095,E,0.023,,051217,,,A*73
$GNGGA,230023.00,3425.38870,S,14731.09095,E,1,07,1.23,284.1,M,12.9,M,,*5C
$GNRMC,230024.00,A,3425.38869,S,14731.09096,E,0.098,,051217,,,A*7F
$GNGGA,230024.00,3425.38869,S,14731.09096,E,1,07,1.23,284.0,M,12.9,M,,*51
$GNRMC,230025.00,A,3425.38869,S,14731.09098,E,0.084,,051217,,,A*7D
$GNGGA,230025.00,3425.38869,S,14731.09098,E,1,07,1.23,284.0,M,12.9,M,,*5E
$GNRMC,230026.00,A,3425.38869,S,14731.09101,E,0.070,,051217,,,A*74
$GNGGA,230026.00,3425.38869,S,14731.09101,E,1,07,1.23,283.9,M,12.9,M,,*52
$GNRMC,230027.00,A,3425.38871,S,14731.09104,E,0.037,,051217,,,A*7A
$GNGGA,230027.00,3425.38871,S,14731.09104,E,1,07,1.23,283.9,M,12.9,M,,*5F
$GNRMC,230028.00,A,3425.38873,S,14731.09106,E,0.087,,051217,,,A*7E
$GNGGA,230028.00,3425.38873,S,14731.09106,E,1,07,1.23,283.8,M,12.9,M,,*51
$GNRMC,230029.00,A,3425.38880,S,14731.09107,E,0.027,,051217,,,A*78
$GNGGA,230029.00,3425.38880,S,14731.09107,E,1,07,1.23,283.7,M,12.9,M,,*52
$GNRMC,230030.00,A,3425.38883,S,14731.09104,E,0.023,,051217,,,A*74
$GNGGA,230030.00,3425.38883,S,14731.09104,E,1,07,1.23,283.6,M,12.9,M,,*5B
$GNRMC,230031.00,A,3425.38883,S,14731.09103,E,0.124,,051217,,,A*74
$GNGGA,230031.00,3425.38883,S,14731.09103,E,1,07,1.23,283.7,M,12.9,M,,*5C
$GNRMC,230032.00,A,3425.38881,S,14731.09103,E,0.036,,051217,,,A*77
$GNGGA,230032.00,3425.38881,S,14731.09103,E,1,07,1.23,283.7,M,12.9,M,,*5D
$GNRMC,230033.00,A,3425.38876,S,14731.09106,E,0.151,,051217,,,A*7B
$GNGGA,230033.00,3425.38876,S,14731.09106,E,1,07,1.23,283.8,M,12.9,M,,*5E
$GNRMC,230034.00,A,3425.38877,S,14731.09111,E,0.190,,051217,,,A*76
$GNGGA,230034.00,3425.38877,S,14731.09111,E,1,07,1.23,283.8,M,12.9,M,,*5E
$GNRMC,230035.00,A,3425.38879,S,14731.09111,E,0.121,,051217,,,A*73
$GNGGA,230035.00,3425.38879,S,14731.09111,E,1,07,1.23,283.7,M,12.9,M,,*5E
$GNRMC,230036.00,A,3425.38877,S,14731.09111,E,0.090,,051217,,,A*75
$GNGGA,230036.00,3425.38877,S,14731.09111,E,1,07,1.23,283.7,M,12.9,M,,*53
$GNRMC,230037.00,A,3425.38873,S,14731.09110,E,0.055,,051217,,,A*78
$GNGGA,230037.00,3425.38873,S,14731.09110,E,1,07,1.23,283.9,M,12.9,M,,*59
$GNRMC,230038.00,A,3425.38873,S,14731.09111,E,0.113,,051217,,,A*75
$GNGGA,230038.00,3425.38873,S,14731.09111,E,1,07,1.23,283.9,M,12.9,M,,*57
$GNRMC,230039.00,A,3425.38876,S,14731.09110,E,0.090,,051217,,,A*7A
$GNGGA,230039.00,3425.38876,S,14731.09110,E,1,07,1.23,283.9,M,12.9,M,,*52
$GNRMC,230040.00,A,3425.38876,S,14731.09110,E,0.222,,051217,,,A*7F
$GNGGA,230040.00,3425.38876,S,14731.09110,E,1,07,1.23,283.9,M,12.9,M,,*5C
$GNRMC,230041.00,A,3425.38882,S,14731.09108,E,0.117,,051217,,,A*79
$GNGGA,230041.00,3425.38882,S,14731.09108,E,1,07,1.23,283.7,M,12.9,M,,*51
$GNRMC,230042.00,A,3425.38884,S,14731.09105,E,0.101,,051217,,,A*76
$GNGGA,230042.00,3425.38884,S,14731.09105,E,1,07,1.23,283.7,M,12.9,M,,*59
$GNRMC,230041.00,A,3425.38885,S,14731.09104,E,0.105,,051217,,,A*71
$GNGGA,230041.00,3425.38885,S,14731.09104,E,1,09,1.13,283.7,M,12.9,M,,*57
$GNRMC,230042.00,A,3425.38890,S,14731.09104,E,0.259,,051217,,,A*7C
$GNGGA,230042.00,3425.38890,S,14731.09104,E,1,09,1.13,283.5,M,12.9,M,,*52
$GNRMC,230043.00,A,3425.38894,S,14731.09103,E,0.113,,051217,,,A*73
$GNGGA,230043.00,3425.38894,S,14731.09103,E,1,09,1.13,283.3,M,12.9,M,,*56
$GNRMC,230044.00,A,3425.38905,S,14731.09099,E,0.128,,051217,,,A*77
$GNGGA,230044.00,3425.38905,S,14731.09099,E,1,09,1.13,282.9,M,12.9,M,,*51
$GNRMC,230045.00,A,3425.38902,S,14731.09095,E,0.256,,051217,,,A*77
$GNGGA,230045.00,3425.38902,S,14731.09095,E,1,09,1.13,282.9,M,12.9,M,,*5B
$GNRMC,230046.00,A,3425.38898,S,14731.09092,E,0.119,,051217,,,A*79
$GNGGA,230046.00,3425.38898,S,14731.09092,E,1,09,1.13,282.9,M,12.9,M,,*5D
$GNRMC,230047.00,A,3425.38900,S,14731.09093,E,0.109,,051217,,,A*78
$GNGGA,230047.00,3425.38900,S,14731.09093,E,1,09,1.13,282.8,M,12.9,M,,*5C
$GNRMC,230048.00,A,3425.38908,S,14731.09094,E,0.112,,051217,,,A*72
$GNGGA,230048.00,3425.38908,S,14731.09094,E,1,09,1.13,282.6,M,12.9,M,,*52
$GNRMC,230049.00,A,3425.38909,S,14731.09094,E,0.108,,051217,,,A*79
$GNGGA,230049.00,3425.38909,S,14731.09094,E,1,10,1.08,282.5,M,12.9,M,,*53
$GNRMC,230050.00,A,3425.38920,S,14731.09089,E,0.457,,051217,,,A*79
$GNGGA,230050.00,3425.38920,S,14731.09089,E,1,10,1.08,282.3,M,12.9,M,,*5A
$GNRMC,230051.00,A,3425.38924,S,14731.09086,E,0.011,,051217,,,A*75
$GNGGA,230051.00,3425.38924,S,14731.09086,E,1,10,1.08,282.3,M,12.9,M,,*50
$GNRMC,230052.00,A,3425.38929,S,14731.09091,E,0.241,,051217,,,A*7A
$GNGGA,230052.00,3425.38929,S,14731.09091,E,1,10,1.08,282.1,M,12.9,M,,*5A
$GNRMC,230053.00,A,3425.38925,S,14731.09082,E,0.238,,051217,,,A*7B
$GNGGA,230053.00,3425.38925,S,14731.09082,E,1,10,1.08,282.3,M,12.9,M,,*57
$GNRMC,230054.00,A,3425.38918,S,14731.09052,E,0.062,,051217,,,A*72
$GNGGA,230054.00,3425.38918,S,14731.09052,E,1,10,1.08,282.8,M,12.9,M,,*58
$GNRMC,230055.00,A,3425.38926,S,14731.09035,E,0.087,,051217,,,A*74
$GNGGA,230055.00,3425.38926,S,14731.09035,E,1,10,1.08,282.8,M,12.9,M,,*55
$GNRMC,230056.00,A,3425.38924,S,14731.09031,E,0.083,,051217,,,A*75
$GNGGA,230056.00,3425.38924,S,14731.09031,E,1,10,1.08,282.8,M,12.9,M,,*50
$GNRMC,230057.00,A,3425.38932,S,14731.09036,E,0.070,,051217,,,A*78
$GNGGA,230057.00,3425.38932,S,14731.09036,E,1,10,1.08,282.8,M,12.9,M,,*51
$GNRMC,230058.00,A,3425.38931,S,14731.09036,E,0.127,,051217,,,A*77
$GNGGA,230058.00,3425.38931,S,14731.09036,E,1,10,1.08,282.9,M,12.9,M,,*5C
$GNRMC,230059.00,A,3425.38934,S,14731.09023,E,0.212,,051217,,,A*72
$GNGGA,230059.00,3425.38934,S,14731.09023,E,1,10,1.08,283.0,M,12.9,M,,*54
$GNRMC,230100.00,A,3425.38942,S,14731.09007,E,0.733,262.53,051217,,,A*60
$GNGGA,230100.00,3425.38942,S,14731.09007,E,1,10,1.08,282.8,M,12.9,M,,*57
$GNRMC,230101.00,A,3425.38942,S,14731.09002,E,0.156,,051217,,,A*7F
$GNGGA,230101.00,3425.38942,S,14731.09002,E,1,09,1.34,282.7,M,12.9,M,,*5B
$GNRMC,230102.00,A,3425.38938,S,14731.09006,E,0.089,,051217,,,A*76
$GNGGA,230102.00,3425.38938,S,14731.09006,E,1,10,1.08,282.8,M,12.9,M,,*59
$GNRMC,230103.00,A,3425.38936,S,14731.09007,E,0.054,,051217,,,A*78
$GNGGA,230103.00,3425.38936,S,14731.09007,E,1,10,1.08,282.9,M,12.9,M,,*56
$GNRMC,230104.00,A,3425.38941,S,14731.09008,E,0.141,,051217,,,A*75
$GNGGA,230104.00,3425.38941,S,14731.09008,E,1,10,1.08,282.9,M,12.9,M,,*5E
$GNRMC,230105.00,A,3425.38944,S,14731.09011,E,0.036,,051217,,,A*78
$GNGGA,230105.00,3425.38944,S,14731.09011,E,1,10,1.08,282.8,M,12.9,M,,*53
$GNRMC,230106.00,A,3425.38937,S,14731.09011,E,0.142,,051217,,,A*7D
$GNGGA,230106.00,3425.38937,S,14731.09011,E,1,10,1.08,283.0,M,12.9,M,,*5D
$GNRMC,230107.00,A,3425.38931,S,14731.08998,E,0.617,,051217,,,A*74
$GNGGA,230107.00,3425.38931,S,14731.08998,E,1,10,1.08,283.2,M,12.9,M,,*51
$GNRMC,230108.00,A,3425.38920,S,14731.08985,E,0.484,,051217,,,A*7F
$GNGGA,230108.00,3425.38920,S,14731.08985,E,1,10,1.08,283.5,M,12.9,M,,*55
$GNRMC,230109.00,A,3425.38919,S,14731.08983,E,0.210,,051217,,,A*79
$GNGGA,230109.00,3425.38919,S,14731.08983,E,1,09,1.13,283.5,M,12.9,M,,*5A
$GNRMC,230110.00,A,3425.38909,S,14731.08965,E,0.957,,051217,,,A*70
$GNGGA,230110.00,3425.38909,S,14731.08965,E,1,09,1.13,283.8,M,12.9,M,,*56
$GNRMC,230111.00,A,3425.38931,S,14731.08984,E,1.986,,051217,,,A*78
$GNGGA,230111.00,3425.38931,S,14731.08984,E,1,09,1.13,284.4,M,12.9,M,,*58
$GNRMC,230112.00,A,3425.38966,S,14731.09001,E,0.456,,051217,,,A*7D
$GNGGA,230112.00,3425.38966,S,14731.09001,E,1,10,1.08,284.1,M,12.9,M,,*5B
$GNRMC,230113.00,A,3425.38983,S,14731.08984,E,0.136,,051217,,,A*71
$GNGGA,230113.00,3425.38983,S,14731.08984,E,1,10,1.08,284.1,M,12.9,M,,*54
$GNRMC,230114.00,V,,,,,,,051217,,,N*66
$GNGGA,230114.00,,,,,0,00,99.99,,,,,,*7D
$GNRMC,230115.00,A,3425.38170,S,14731.09449,E,38.931,31.78,051217,,,A*69
$GNGGA,230115.00,3425.38170,S,14731.09449,E,1,10,1.11,321.1,M,12.9,M,,*5D
$GNRMC,230116.00,A,3425.38104,S,14731.09744,E,3.476,161.02,051217,,,A*68
$GNGGA,230116.00,3425.38104,S,14731.09744,E,1,10,1.26,328.2,M,12.9,M,,*5D
$GNRMC,230117.00,A,3425.38790,S,14731.09942,E,0.368,,051217,,,A*7B
$GNGGA,230117.00,3425.38790,S,14731.09942,E,1,10,2.05,319.2,M,12.9,M,,*5F
$GNRMC,230118.00,A,3425.39066,S,14731.09809,E,0.269,,051217,,,A*75
$GNGGA,230118.00,3425.39066,S,14731.09809,E,1,10,1.12,313.8,M,12.9,M,,*54
$GNRMC,230119.00,A,3425.38993,S,14731.09414,E,0.168,,051217,,,A*74
$GNGGA,230119.00,3425.38993,S,14731.09414,E,1,10,1.08,305.7,M,12.9,M,,*54
$GNRMC,230120.00,A,3425.38904,S,14731.09234,E,0.057,,051217,,,A*79
$GNGGA,230120.00,3425.38904,S,14731.09234,E,1,10,1.35,303.9,M,12.9,M,,*52
$GNRMC,230121.00,A,3425.38877,S,14731.09210,E,0.015,,051217,,,A*7D
$GNGGA,230121.00,3425.38877,S,14731.09210,E,1,09,1.14,303.0,M,12.9,M,,*52
$GNRMC,230122.00,A,3425.38868,S,14731.09241,E,0.364,,051217,,,A*71
$GNGGA,230122.00,3425.38868,S,14731.09241,E,1,09,1.50,301.3,M,12.9,M,,*5A
$GNRMC,230123.00,A,3425.38906,S,14731.09279,E,0.068,,051217,,,A*7D
$GNGGA,230123.00,3425.38906,S,14731.09279,E,1,09,1.50,296.8,M,12.9,M,,*5D
$GNRMC,230124.00,A,3425.38811,S,14731.09434,E,0.199,,051217,,,A*7D
$GNGGA,230124.00,3425.38811,S,14731.09434,E,1,09,1.13,290.3,M,12.9,M,,*58
$GNRMC,230125.00,A,3425.38760,S,14731.09470,E,0.240,,051217,,,A*72
$GNGGA,230125.00,3425.38760,S,14731.09470,E,1,09,1.13,288.8,M,12.9,M,,*52
$GNRMC,230126.00,A,3425.38789,S,14731.09463,E,0.170,,051217,,,A*74
$GNGGA,230126.00,3425.38789,S,14731.09463,E,1,10,1.08,288.1,M,12.9,M,,*5F
$GNRMC,230127.00,A,3425.38823,S,14731.09423,E,0.523,,051217,,,A*7C
$GNGGA,230127.00,3425.38823,S,14731.09423,E,1,10,1.50,286.4,M,12.9,M,,*53
$GNRMC,230128.00,A,3425.38804,S,14731.09317,E,0.597,,051217,,,A*79
$GNGGA,230128.00,3425.38804,S,14731.09317,E,1,10,1.11,287.4,M,12.9,M,,*5D
$GNRMC,230129.00,A,3425.38817,S,14731.09305,E,0.357,,051217,,,A*73
$GNGGA,230129.00,3425.38817,S,14731.09305,E,1,10,1.08,287.3,M,12.9,M,,*52
$GNRMC,230130.00,A,3425.38826,S,14731.09302,E,0.458,,051217,,,A*76
$GNGGA,230130.00,3425.38826,S,14731.09302,E,1,10,1.08,287.1,M,12.9,M,,*5D
$GNRMC,230131.00,A,3425.38817,S,14731.09298,E,0.096,,051217,,,A*71
$GNGGA,230131.00,3425.38817,S,14731.09298,E,1,10,1.08,287.6,M,12.9,M,,*5B
$GNRMC,230132.00,A,3425.38807,S,14731.09289,E,0.429,,051217,,,A*73
$GNGGA,230132.00,3425.38807,S,14731.09289,E,1,10,1.08,288.4,M,12.9,M,,*54
$GNRMC,230133.00,A,3425.38824,S,14731.09289,E,0.063,,051217,,,A*79
$GNGGA,230133.00,3425.38824,S,14731.09289,E,1,10,1.08,288.4,M,12.9,M,,*54
$GNRMC,230134.00,A,3425.38830,S,14731.09277,E,0.087,,051217,,,A*70
$GNGGA,230134.00,3425.38830,S,14731.09277,E,1,10,1.08,288.8,M,12.9,M,,*5B
$GNRMC,230135.00,A,3425.38838,S,14731.09266,E,0.098,,051217,,,A*77
$GNGGA,230135.00,3425.38838,S,14731.09266,E,1,10,1.11,289.0,M,12.9,M,,*53
$GNRMC,230136.00,A,3425.38848,S,14731.09254,E,0.076,,051217,,,A*72
$GNGGA,230136.00,3425.38848,S,14731.09254,E,1,10,1.11,289.0,M,12.9,M,,*56
$GNRMC,230137.00,A,3425.38855,S,14731.09247,E,0.123,,051217,,,A*7C
$GNGGA,230137.00,3425.38855,S,14731.09247,E,1,10,1.11,289.1,M,12.9,M,,*58
$GNRMC,230138.00,A,3425.38864,S,14731.09241,E,0.172,,051217,,,A*73
$GNGGA,230138.00,3425.38864,S,14731.09241,E,1,10,1.11,289.0,M,12.9,M,,*52
$GNRMC,230139.00,A,3425.38891,S,14731.09229,E,0.156,,051217,,,A*70
$GNGGA,230139.00,3425.38891,S,14731.09229,E,1,11,0.87,288.4,M,12.9,M,,*5D
$GNRMC,230140.00,A,3425.38912,S,14731.09217,E,0.029,,051217,,,A*70
$GNGGA,230140.00,3425.38912,S,14731.09217,E,1,12,0.86,288.1,M,12.9,M,,*53
$GNRMC,230141.00,A,3425.38927,S,14731.09210,E,0.036,,051217,,,A*7E
$GNGGA,230141.00,3425.38927,S,14731.09210,E,1,12,0.86,288.0,M,12.9,M,,*52
$GNRMC,230142.00,A,3425.38938,S,14731.09206,E,0.204,,051217,,,A*77
$GNGGA,230142.00,3425.38938,S,14731.09206,E,1,11,0.87,288.0,M,12.9,M,,*5A
$GNRMC,230143.00,A,3425.38950,S,14731.09198,E,0.109,,051217,,,A*72
$GNGGA,230143.00,3425.38950,S,14731.09198,E,1,11,0.87,288.0,M,12.9,M,,*51
$GNRMC,230144.00,A,3425.38958,S,14731.09192,E,0.059,,051217,,,A*73
$GNGGA,230144.00,3425.38958,S,14731.09192,E,1,12,0.86,288.0,M,12.9,M,,*56
$GNRMC,230145.00,A,3425.38966,S,14731.09187,E,0.078,,051217,,,A*78
$GNGGA,230145.00,3425.38966,S,14731.09187,E,1,12,0.86,287.9,M,12.9,M,,*58
$GNRMC,230146.00,A,3425.38973,S,14731.09182,E,0.106,,051217,,,A*72
$GNGGA,230146.00,3425.38973,S,14731.09182,E,1,12,0.86,287.8,M,12.9,M,,*5B
$GNRMC,230147.00,A,3425.38981,S,14731.09172,E,0.257,,051217,,,A*76
$GNGGA,230147.00,3425.38981,S,14731.09172,E,1,12,0.86,287.8,M,12.9,M,,*58
$GNRMC,230148.00,A,3425.38991,S,14731.09164,E,0.234,,051217,,,A*7A
$GNGGA,230148.00,3425.38991,S,14731.09164,E,1,12,0.86,287.8,M,12.9,M,,*51
$GNRMC,230149.00,A,3425.39010,S,14731.09161,E,0.185,,051217,,,A*76
$GNGGA,230149.00,3425.39010,S,14731.09161,E,1,12,0.86,287.6,M,12.9,M,,*5A
$GNRMC,230150.00,A,3425.39008,S,14731.09166,E,0.571,,051217,,,A*7F
$GNGGA,230150.00,3425.39008,S,14731.09166,E,1,12,0.86,287.8,M,12.9,M,,*52
$GNRMC,230151.00,A,3425.39030,S,14731.09160,E,0.287,,051217,,,A*7D
$GNGGA,230151.00,3425.39030,S,14731.09160,E,1,12,0.85,286.9,M,12.9,M,,*5D
$GNRMC,230152.00,A,3425.39030,S,14731.09164,E,0.277,,051217,,,A*75
$GNGGA,230152.00,3425.39030,S,14731.09164,E,1,12,0.85,286.9,M,12.9,M,,*5A
$GNRMC,230153.00,A,3425.39022,S,14731.09172,E,0.440,,051217,,,A*72
$GNGGA,230153.00,3425.39022,S,14731.09172,E,1,12,0.85,286.9,M,12.9,M,,*5F
$GNRMC,230154.00,A,3425.39020,S,14731.09162,E,0.333,,051217,,,A*75
$GNGGA,230154.00,3425.39020,S,14731.09162,E,1,12,0.85,286.8,M,12.9,M,,*5A
$GNRMC,230155.00,A,3425.39026,S,14731.09172,E,0.653,,051217,,,A*70
$GNGGA,230155.00,3425.39026,S,14731.09172,E,1,12,0.85,287.1,M,12.9,M,,*54
$GNRMC,230156.00,A,3425.39023,S,14731.09177,E,0.203,,051217,,,A*72
$GNGGA,230156.00,3425.39023,S,14731.09177,E,1,12,0.85,287.0,M,12.9,M,,*56
$GNRMC,230157.00,A,3425.39005,S,14731.09175,E,0.287,,051217,,,A*79
$GNGGA,230157.00,3425.39005,S,14731.09175,E,1,12,0.85,287.1,M,12.9,M,,*50
$GNRMC,230158.00,A,3425.39006,S,14731.09179,E,0.154,,051217,,,A*74
$GNGGA,230158.00,3425.39006,S,14731.09179,E,1,12,0.85,286.9,M,12.9,M,,*59
$GNRMC,230159.00,A,3425.39005,S,14731.09180,E,0.022,,051217,,,A*70
$GNGGA,230159.00,3425.39005,S,14731.09180,E,1,12,0.85,286.9,M,12.9,M,,*5D
$GNRMC,230200.00,A,3425.39007,S,14731.09181,E,0.127,,051217,,,A*78
$GNGGA,230200.00,3425.39007,S,14731.09181,E,1,12,0.85,286.8,M,12.9,M,,*50
$GNRMC,230201.00,A,3425.39006,S,14731.09186,E,0.195,,051217,,,A*76
$GNGGA,230201.00,3425.39006,S,14731.09186,E,1,12,0.83,286.8,M,12.9,M,,*51
$GNRMC,230202.00,A,3425.39006,S,14731.09190,E,0.111,,051217,,,A*7E
$GNGGA,230202.00,3425.39006,S,14731.09190,E,1,12,0.83,286.9,M,12.9,M,,*54
$GNRMC,230203.00,A,3425.39009,S,14731.09190,E,0.103,,051217,,,A*73
$GNGGA,230203.00,3425.39009,S,14731.09190,E,1,12,0.83,286.7,M,12.9,M,,*54
$GNRMC,230204.00,A,3425.39012,S,14731.09184,E,0.117,,051217,,,A*7E
$GNGGA,230204.00,3425.39012,S,14731.09184,E,1,12,0.83,286.5,M,12.9,M,,*5E
$GNRMC,230205.00,A,3425.39014,S,14731.09181,E,0.117,,051217,,,A*7C
$GNGGA,230205.00,3425.39014,S,14731.09181,E,1,12,0.83,286.3,M,12.9,M,,*5A
$GNRMC,230206.00,A,3425.39016,S,14731.09180,E,0.116,,051217,,,A*7D
$GNGGA,230206.00,3425.39016,S,14731.09180,E,1,12,0.83,286.1,M,12.9,M,,*58
$GNRMC,230207.00,A,3425.39022,S,14731.09176,E,0.087,,051217,,,A*7B
$GNGGA,230207.00,3425.39022,S,14731.09176,E,1,12,0.81,285.8,M,12.9,M,,*5F
$GNRMC,230208.00,A,3425.39028,S,14731.09175,E,0.103,,051217,,,A*70
$GNGGA,230208.00,3425.39028,S,14731.09175,E,1,12,0.81,285.5,M,12.9,M,,*54
$GNRMC,230209.00,A,3425.39029,S,14731.09173,E,0.086,,051217,,,A*7A
$GNGGA,230209.00,3425.39029,S,14731.09173,E,1,12,0.81,285.2,M,12.9,M,,*55
$GNRMC,230210.00,A,3425.39034,S,14731.09172,E,0.175,,051217,,,A*72
$GNGGA,230210.00,3425.39034,S,14731.09172,E,1,12,0.81,284.9,M,12.9,M,,*5A
$GNRMC,230211.00,A,3425.39044,S,14731.09162,E,0.080,,051217,,,A*7E
$GNGGA,230211.00,3425.39044,S,14731.09162,E,1,12,0.81,284.5,M,12.9,M,,*51
$GNRMC,230212.00,A,3425.39050,S,14731.09156,E,0.232,,051217,,,A*74
$GNGGA,230212.00,3425.39050,S,14731.09156,E,1,12,0.81,284.2,M,12.9,M,,*57
$GNRMC,230213.00,A,3425.39066,S,14731.09142,E,0.129,,051217,,,A*7C
$GNGGA,230213.00,3425.39066,S,14731.09142,E,1,12,0.81,283.7,M,12.9,M,,*54
$GNRMC,230214.00,A,3425.39067,S,14731.09146,E,0.072,,051217,,,A*71
$GNGGA,230214.00,3425.39067,S,14731.09146,E,1,12,1.15,283.4,M,12.9,M,,*59
$GNRMC,230215.00,A,3425.39069,S,14731.09139,E,0.205,,051217,,,A*74
$GNGGA,230215.00,3425.39069,S,14731.09139,E,1,12,1.15,283.1,M,12.9,M,,*5B
$GNRMC,230216.00,A,3425.39074,S,14731.09132,E,0.024,,051217,,,A*71
$GNGGA,230216.00,3425.39074,S,14731.09132,E,1,12,1.15,282.7,M,12.9,M,,*58
$GNRMC,230217.00,A,3425.39078,S,14731.09123,E,0.032,,051217,,,A*7B
$GNGGA,230217.00,3425.39078,S,14731.09123,E,1,12,0.81,282.4,M,12.9,M,,*5A
$GNRMC,230218.00,A,3425.39081,S,14731.09117,E,0.071,,051217,,,A*72
$GNGGA,230218.00,3425.39081,S,14731.09117,E,1,12,0.81,282.1,M,12.9,M,,*51
$GNRMC,230219.00,A,3425.39084,S,14731.09107,E,0.267,,051217,,,A*72
$GNGGA,230219.00,3425.39084,S,14731.09107,E,1,12,0.81,281.8,M,12.9,M,,*5E
$GNRMC,230220.00,A,3425.39086,S,14731.09099,E,0.036,,051217,,,A*7A
$GNGGA,230220.00,3425.39086,S,14731.09099,E,1,12,0.81,281.4,M,12.9,M,,*5C
$GNRMC,230221.00,A,3425.39091,S,14731.09089,E,0.167,,051217,,,A*79
$GNGGA,230221.00,3425.39091,S,14731.09089,E,1,12,0.81,281.0,M,12.9,M,,*5E
$GNRMC,230222.00,A,3425.39096,S,14731.09081,E,0.093,,051217,,,A*7F
$GNGGA,230222.00,3425.39096,S,14731.09081,E,1,12,0.81,280.8,M,12.9,M,,*5B
$GNRMC,230223.00,A,3425.39099,S,14731.09075,E,0.062,,051217,,,A*74
$GNGGA,230223.00,3425.39099,S,14731.09075,E,1,12,0.81,280.5,M,12.9,M,,*53
$GNRMC,230224.00,A,3425.39101,S,14731.09073,E,0.049,,051217,,,A*7C
$GNGGA,230224.00,3425.39101,S,14731.09073,E,1,12,0.81,280.2,M,12.9,M,,*55
$GNRMC,230225.00,A,3425.39102,S,14731.09073,E,0.047,,051217,,,A*70
$GNGGA,230225.00,3425.39102,S,14731.09073,E,1,12,0.81,280.1,M,12.9,M,,*54
$GNRMC,230226.00,A,3425.39101,S,14731.09075,E,0.149,,051217,,,A*79
$GNGGA,230226.00,3425.39101,S,14731.09075,E,1,12,0.81,280.0,M,12.9,M,,*53
$GNRMC,230227.00,A,3425.39103,S,14731.09074,E,0.016,,051217,,,A*70
$GNGGA,230227.00,3425.39103,S,14731.09074,E,1,12,0.81,279.7,M,12.9,M,,*50
$GNRMC,230228.00,A,3425.39102,S,14731.09072,E,0.049,,051217,,,A*72
$GNGGA,230228.00,3425.39102,S,14731.09072,E,1,12,0.81,279.5,M,12.9,M,,*5A
$GNRMC,230229.00,A,3425.39100,S,14731.09072,E,0.093,,051217,,,A*76
$GNGGA,230229.00,3425.39100,S,14731.09072,E,1,12,0.81,279.5,M,12.9,M,,*59
$GNRMC,230230.00,A,3425.39098,S,14731.09071,E,0.038,,051217,,,A*7C
$GNGGA,230230.00,3425.39098,S,14731.09071,E,1,12,0.81,279.4,M,12.9,M,,*53
$GNRMC,230231.00,A,3425.39098,S,14731.09069,E,0.086,,051217,,,A*71
$GNGGA,230231.00,3425.39098,S,14731.09069,E,1,12,0.74,279.3,M,12.9,M,,*56
$GNRMC,230232.00,A,3425.39094,S,14731.09073,E,0.110,,051217,,,A*7B
$GNGGA,230232.00,3425.39094,S,14731.09073,E,1,12,0.74,279.3,M,12.9,M,,*52
$GNRMC,230233.00,A,3425.39101,S,14731.09069,E,0.046,,051217,,,A*7E
$GNGGA,230233.00,3425.39101,S,14731.09069,E,1,12,0.74,279.0,M,12.9,M,,*56
$GNRMC,230234.00,A,3425.39105,S,14731.09068,E,0.111,,051217,,,A*7F
$GNGGA,230234.00,3425.39105,S,14731.09068,E,1,12,0.74,278.9,M,12.9,M,,*5C
$GNRMC,230235.00,A,3425.39108,S,14731.09067,E,0.048,,051217,,,A*71
$GNGGA,230235.00,3425.39108,S,14731.09067,E,1,12,0.74,278.8,M,12.9,M,,*5E
$GNRMC,230236.00,A,3425.39113,S,14731.09066,E,0.080,,051217,,,A*7D
$GNGGA,230236.00,3425.39113,S,14731.09066,E,1,12,0.74,278.6,M,12.9,M,,*58
$GNRMC,230237.00,A,3425.39113,S,14731.09067,E,0.076,,051217,,,A*74
$GNGGA,230237.00,3425.39113,S,14731.09067,E,1,12,0.74,278.6,M,12.9,M,,*58
$GNRMC,230238.00,A,3425.39117,S,14731.09065,E,0.036,,051217,,,A*79
$GNGGA,230238.00,3425.39117,S,14731.09065,E,1,12,0.74,278.5,M,12.9,M,,*52
$GNRMC,230239.00,A,3425.39119,S,14731.09064,E,0.048,,051217,,,A*7E
$GNGGA,230239.00,3425.39119,S,14731.09064,E,1,12,0.69,278.3,M,12.9,M,,*56
$GNRMC,230240.00,A,3425.39118,S,14731.09064,E,0.035,,051217,,,A*7B
$GNGGA,230240.00,3425.39118,S,14731.09064,E,1,12,0.69,278.3,M,12.9,M,,*59
$GNRMC,230241.00,A,3425.39117,S,14731.09064,E,0.038,,051217,,,A*78
$GNGGA,230241.00,3425.39117,S,14731.09064,E,1,12,0.69,278.3,M,12.9,M,,*57
$GNRMC,230242.00,A,3425.39116,S,14731.09066,E,0.110,,051217,,,A*73
$GNGGA,230242.00,3425.39116,S,14731.09066,E,1,12,0.69,278.3,M,12.9,M,,*57
$GNRMC,230243.00,A,3425.39119,S,14731.09066,E,0.065,,051217,,,A*7E
$GNGGA,230243.00,3425.39119,S,14731.09066,E,1,12,0.69,278.2,M,12.9,M,,*58
$GNRMC,230244.00,A,3425.39119,S,14731.09067,E,0.060,,051217,,,A*7D
$GNGGA,230244.00,3425.39119,S,14731.09067,E,1,12,0.69,278.2,M,12.9,M,,*5E
$GNRMC,230245.00,A,3425.39117,S,14731.09068,E,0.106,,051217,,,A*7C
$GNGGA,230245.00,3425.39117,S,14731.09068,E,1,12,0.69,278.3,M,12.9,M,,*5F
$GNRMC,230246.00,A,3425.39116,S,14731.09066,E,0.039,,051217,,,A*7D
$GNGGA,230246.00,3425.39116,S,14731.09066,E,1,12,0.69,278.3,M,12.9,M,,*53
$GNRMC,230247.00,A,3425.39115,S,14731.09068,E,0.120,,051217,,,A*78
$GNGGA,230247.00,3425.39115,S,14731.09068,E,1,12,0.69,278.4,M,12.9,M,,*58
$GNRMC,230248.00,A,3425.39114,S,14731.09070,E,0.038,,051217,,,A*77
$GNGGA,230248.00,3425.39114,S,14731.09070,E,1,12,0.69,278.4,M,12.9,M,,*5F
$GNRMC,230249.00,A,3425.39111,S,14731.09073,E,0.022,,051217,,,A*7B
$GNGGA,230249.00,3425.39111,S,14731.09073,E,1,12,0.69,278.4,M,12.9,M,,*58
$GNRMC,230250.00,A,3425.39112,S,14731.09072,E,0.030,,051217,,,A*72
$GNGGA,230250.00,3425.39112,S,14731.09072,E,1,12,0.69,278.4,M,12.9,M,,*52
$GNRMC,230251.00,A,3425.39111,S,14731.09070,E,0.117,,051217,,,A*76
$GNGGA,230251.00,3425.39111,S,14731.09070,E,1,12,0.69,278.3,M,12.9,M,,*55
$GNRMC,230252.00,A,3425.39114,S,14731.09067,E,0.118,,051217,,,A*79
$GNGGA,230252.00,3425.39114,S,14731.09067,E,1,12,0.69,278.2,M,12.9,M,,*54
$GNRMC,230253.00,A,3425.39114,S,14731.09068,E,0.071,,051217,,,A*79
$GNGGA,230253.00,3425.39114,S,14731.09068,E,1,12,0.69,278.2,M,12.9,M,,*5A
$GNRMC,230254.00,A,3425.39115,S,14731.09066,E,0.080,,051217,,,A*7F
$GNGGA,230254.00,3425.39115,S,14731.09066,E,1,12,0.89,278.1,M,12.9,M,,*5F
$GNRMC,230255.00,A,3425.39113,S,14731.09065,E,0.037,,051217,,,A*77
$GNGGA,230255.00,3425.39113,S,14731.09065,E,1,12,0.69,278.1,M,12.9,M,,*55
$GNRMC,230256.00,A,3425.39113,S,14731.09063,E,0.094,,051217,,,A*7B
$GNGGA,230256.00,3425.39113,S,14731.09063,E,1,12,0.69,278.0,M,12.9,M,,*51
$GNRMC,230257.00,A,3425.39112,S,14731.09065,E,0.074,,051217,,,A*73
$GNGGA,230257.00,3425.39112,S,14731.09065,E,1,12,0.69,278.0,M,12.9,M,,*57
$GNRMC,230258.00,A,3425.39112,S,14731.09062,E,0.020,,051217,,,A*7A
$GNGGA,230258.00,3425.39112,S,14731.09062,E,1,12,0.69,277.9,M,12.9,M,,*59
$GNRMC,230259.00,A,3425.39110,S,14731.09065,E,0.022,,051217,,,A*7C
$GNGGA,230259.00,3425.39110,S,14731.09065,E,1,12,0.69,277.9,M,12.9,M,,*5D
$GNRMC,230300.00,A,3425.39110,S,14731.09062,E,0.155,,051217,,,A*77
$GNGGA,230300.00,3425.39110,S,14731.09062,E,1,12,0.69,277.8,M,12.9,M,,*56
$GNRMC,230301.00,A,3425.39109,S,14731.09062,E,0.097,,051217,,,A*71
$GNGGA,230301.00,3425.39109,S,14731.09062,E,1,12,0.69,277.9,M,12.9,M,,*5E
$GNRMC,230302.00,A,3425.39108,S,14731.09065,E,0.340,,051217,,,A*7D
$GNGGA,230302.00,3425.39108,S,14731.09065,E,1,12,0.69,277.9,M,12.9,M,,*5B
$GNRMC,230303.00,A,3425.39105,S,14731.09066,E,0.134,,051217,,,A*73
$GNGGA,230303.00,3425.39105,S,14731.09066,E,1,12,0.69,278.1,M,12.9,M,,*53
$GNRMC,230304.00,A,3425.39104,S,14731.09064,E,0.070,,051217,,,A*76
$GNGGA,230304.00,3425.39104,S,14731.09064,E,1,12,0.69,278.1,M,12.9,M,,*57
$GNRMC,230305.00,A,3425.39104,S,14731.09061,E,0.091,,051217,,,A*7D
$GNGGA,230305.00,3425.39104,S,14731.09061,E,1,12,0.69,278.0,M,12.9,M,,*52
$GNRMC,230306.00,A,3425.39104,S,14731.09058,E,0.276,,051217,,,A*7F
$GNGGA,230306.00,3425.39104,S,14731.09058,E,1,12,0.69,278.0,M,12.9,M,,*5B
$GNRMC,230307.00,A,3425.39103,S,14731.09056,E,0.102,,051217,,,A*77
$GNGGA,230307.00,3425.39103,S,14731.09056,E,1,12,0.69,278.0,M,12.9,M,,*53
$GNRMC,230308.00,A,3425.39103,S,14731.09051,E,0.167,,051217,,,A*7C
$GNGGA,230308.00,3425.39103,S,14731.09051,E,1,12,0.69,277.7,M,12.9,M,,*53
$GNRMC,230309.00,A,3425.39103,S,14731.09054,E,0.245,,051217,,,A*7B
$GNGGA,230309.00,3425.39103,S,14731.09054,E,1,12,0.69,277.8,M,12.9,M,,*58
$GNRMC,230310.00,A,3425.39105,S,14731.09058,E,0.188,,051217,,,A*7B
$GNGGA,230310.00,3425.39105,S,14731.09058,E,1,12,0.69,277.9,M,12.9,M,,*5B
$GNRMC,230311.00,A,3425.39104,S,14731.09059,E,0.097,,051217,,,A*75
$GNGGA,230311.00,3425.39104,S,14731.09059,E,1,12,0.69,278.0,M,12.9,M,,*5C
$GNRMC,230312.00,A,3425.39105,S,14731.09056,E,0.013,,051217,,,A*74
$GNGGA,230312.00,3425.39105,S,14731.09056,E,1,12,0.69,278.0,M,12.9,M,,*51
$GNRMC,230313.00,A,3425.39104,S,14731.09054,E,0.168,,051217,,,A*7B
$GNGGA,230313.00,3425.39104,S,14731.09054,E,1,12,0.69,278.0,M,12.9,M,,*53
$GNRMC,230314.00,A,3425.39106,S,14731.09047,E,0.056,,051217,,,A*70
$GNGGA,230314.00,3425.39106,S,14731.09047,E,1,12,0.89,277.9,M,12.9,M,,*5C
$GNRMC,230315.00,A,3425.39102,S,14731.09036,E,0.042,,051217,,,A*76
$GNGGA,230315.00,3425.39102,S,14731.09036,E,1,12,0.89,277.8,M,12.9,M,,*5E
$GNRMC,230316.00,A,3425.39097,S,14731.09040,E,0.032,,051217,,,A*7E
$GNGGA,230316.00,3425.39097,S,14731.09040,E,1,12,0.69,277.9,M,12.9,M,,*5E
$GNRMC,230317.00,A,3425.39095,S,14731.09042,E,0.095,,051217,,,A*72
$GNGGA,230317.00,3425.39095,S,14731.09042,E,1,12,0.89,277.8,M,12.9,M,,*50
$GNRMC,230318.00,A,3425.39093,S,14731.09043,E,0.008,,051217,,,A*7E
$GNGGA,230318.00,3425.39093,S,14731.09043,E,1,12,0.69,277.7,M,12.9,M,,*59
$GNRMC,230319.00,A,3425.39088,S,14731.09048,E,0.032,,051217,,,A*77
$GNGGA,230319.00,3425.39088,S,14731.09048,E,1,12,0.61,277.9,M,12.9,M,,*5F
$GNRMC,230320.00,A,3425.39081,S,14731.09056,E,0.013,,051217,,,A*78
$GNGGA,230320.00,3425.39081,S,14731.09056,E,1,12,0.61,278.1,M,12.9,M,,*54
$GNRMC,230321.00,A,3425.39076,S,14731.09063,E,0.127,,051217,,,A*71
$GNGGA,230321.00,3425.39076,S,14731.09063,E,1,12,0.61,278.2,M,12.9,M,,*58
$GNRMC,230322.00,A,3425.39075,S,14731.09062,E,0.029,,051217,,,A*7F
$GNGGA,230322.00,3425.39075,S,14731.09062,E,1,12,0.61,278.1,M,12.9,M,,*5A
$GNRMC,230323.00,A,3425.39074,S,14731.09062,E,0.048,,051217,,,A*78
$GNGGA,230323.00,3425.39074,S,14731.09062,E,1,12,0.61,278.1,M,12.9,M,,*5A
$GNRMC,230324.00,A,3425.39073,S,14731.09060,E,0.047,,051217,,,A*75
$GNGGA,230324.00,3425.39073,S,14731.09060,E,1,12,0.61,278.1,M,12.9,M,,*58
$GNRMC,230325.00,A,3425.39072,S,14731.09058,E,0.052,,051217,,,A*7A
$GNGGA,230325.00,3425.39072,S,14731.09058,E,1,12,0.61,278.1,M,12.9,M,,*53
$GNRMC,230326.00,A,3425.39071,S,14731.09056,E,0.063,,051217,,,A*76
$GNGGA,230326.00,3425.39071,S,14731.09056,E,1,12,0.61,278.2,M,12.9,M,,*5E
$GNRMC,230327.00,A,3425.39070,S,14731.09058,E,0.089,,051217,,,A*7C
$GNGGA,230327.00,3425.39070,S,14731.09058,E,1,12,0.61,278.2,M,12.9,M,,*50
$GNRMC,230328.00,A,3425.39066,S,14731.09060,E,0.079,,051217,,,A*70
$GNGGA,230328.00,3425.39066,S,14731.09060,E,1,12,0.61,278.3,M,12.9,M,,*52
$GNRMC,230329.00,A,3425.39066,S,14731.09061,E,0.068,,051217,,,A*70
$GNGGA,230329.00,3425.39066,S,14731.09061,E,1,12,0.61,278.3,M,12.9,M,,*52
$GNRMC,230330.00,A,3425.39064,S,14731.09063,E,0.088,,051217,,,A*76
$GNGGA,230330.00,3425.39064,S,14731.09063,E,1,12,0.61,278.4,M,12.9,M,,*5D
$GNRMC,230331.00,A,3425.39062,S,14731.09069,E,0.082,,051217,,,A*71
$GNGGA,230331.00,3425.39062,S,14731.09069,E,1,12,0.61,278.4,M,12.9,M,,*50
$GNRMC,230332.00,A,3425.39062,S,14731.09074,E,0.102,,051217,,,A*77
$GNGGA,230332.00,3425.39062,S,14731.09074,E,1,12,0.61,278.3,M,12.9,M,,*58
$GNRMC,230333.00,A,3425.39066,S,14731.09081,E,0.089,,051217,,,A*7A
$GNGGA,230333.00,3425.39066,S,14731.09081,E,1,12,0.61,278.2,M,12.9,M,,*56
$GNRMC,230334.00,A,3425.39068,S,14731.09082,E,0.030,,051217,,,A*72
$GNGGA,230334.00,3425.39068,S,14731.09082,E,1,12,0.61,278.1,M,12.9,M,,*5F
$GNRMC,230335.00,A,3425.39068,S,14731.09083,E,0.111,,051217,,,A*70
$GNGGA,230335.00,3425.39068,S,14731.09083,E,1,12,0.61,278.2,M,12.9,M,,*5C
$GNRMC,230336.00,A,3425.39067,S,14731.09086,E,0.102,,051217,,,A*7B
$GNGGA,230336.00,3425.39067,S,14731.09086,E,1,12,0.61,278.3,M,12.9,M,,*54
$GNRMC,230337.00,A,3425.39064,S,14731.09086,E,0.024,,051217,,,A*7C
$GNGGA,230337.00,3425.39064,S,14731.09086,E,1,12,0.61,278.4,M,12.9,M,,*51
$GNRMC,230338.00,A,3425.39064,S,14731.09090,E,0.100,,051217,,,A*73
$GNGGA,230338.00,3425.39064,S,14731.09090,E,1,12,0.61,278.4,M,12.9,M,,*59
$GNRMC,230339.00,A,3425.39064,S,14731.09093,E,0.046,,051217,,,A*72
$GNGGA,230339.00,3425.39064,S,14731.09093,E,1,12,0.63,278.5,M,12.9,M,,*58
$GNRMC,230340.00,A,3425.39064,S,14731.09093,E,0.018,,051217,,,A*77
$GNGGA,230340.00,3425.39064,S,14731.09093,E,1,12,0.63,278.5,M,12.9,M,,*56
$GNRMC,230341.00,A,3425.39071,S,14731.09086,E,0.055,,051217,,,A*7F
$GNGGA,230341.00,3425.39071,S,14731.09086,E,1,12,0.63,278.3,M,12.9,M,,*51
$GNRMC,230342.00,A,3425.39073,S,14731.09081,E,0.060,,051217,,,A*7F
$GNGGA,230342.00,3425.39073,S,14731.09081,E,1,12,0.63,278.1,M,12.9,M,,*55
$GNRMC,230343.00,A,3425.39072,S,14731.09080,E,0.146,,051217,,,A*7B
$GNGGA,230343.00,3425.39072,S,14731.09080,E,1,12,0.61,278.1,M,12.9,M,,*56
$GNRMC,230344.00,A,3425.39074,S,14731.09076,E,0.170,,051217,,,A*76
$GNGGA,230344.00,3425.39074,S,14731.09076,E,1,12,0.61,278.1,M,12.9,M,,*5E
$GNRMC,230345.00,A,3425.39077,S,14731.09070,E,0.049,,051217,,,A*79
$GNGGA,230345.00,3425.39077,S,14731.09070,E,1,12,0.61,278.0,M,12.9,M,,*5B
$GNRMC,230346.00,A,3425.39078,S,14731.09069,E,0.039,,051217,,,A*7A
$GNGGA,230346.00,3425.39078,S,14731.09069,E,1,12,0.61,278.0,M,12.9,M,,*5F
$GNRMC,230347.00,A,3425.39077,S,14731.09072,E,0.068,,051217,,,A*7A
$GNGGA,230347.00,3425.39077,S,14731.09072,E,1,12,0.61,278.1,M,12.9,M,,*5A
$GNRMC,230348.00,A,3425.39077,S,14731.09073,E,0.034,,051217,,,A*7D
$GNGGA,230348.00,3425.39077,S,14731.09073,E,1,12,0.61,278.2,M,12.9,M,,*57
$GNRMC,230349.00,A,3425.39077,S,14731.09075,E,0.062,,051217,,,A*79
$GNGGA,230349.00,3425.39077,S,14731.09075,E,1,12,0.61,278.2,M,12.9,M,,*50
$GNRMC,230350.00,A,3425.39077,S,14731.09073,E,0.061,,051217,,,A*74
$GNGGA,230350.00,3425.39077,S,14731.09073,E,1,12,0.61,278.1,M,12.9,M,,*5D
$GNRMC,230351.00,A,3425.39078,S,14731.09070,E,0.079,,051217,,,A*70
$GNGGA,230351.00,3425.39078,S,14731.09070,E,1,12,0.61,278.1,M,12.9,M,,*50
$GNRMC,230352.00,A,3425.39080,S,14731.09072,E,0.081,,051217,,,A*71
$GNGGA,230352.00,3425.39080,S,14731.09072,E,1,12,0.61,278.1,M,12.9,M,,*56
$GNRMC,230353.00,A,3425.39079,S,14731.09074,E,0.032,,051217,,,A*78
$GNGGA,230353.00,3425.39079,S,14731.09074,E,1,12,0.61,278.2,M,12.9,M,,*54
$GNRMC,230354.00,A,3425.39078,S,14731.09071,E,0.161,,051217,,,A*7C
$GNGGA,230354.00,3425.39078,S,14731.09071,E,1,12,0.61,278.2,M,12.9,M,,*57
$GNRMC,230355.00,A,3425.39074,S,14731.09074,E,0.064,,051217,,,A*70
$GNGGA,230355.00,3425.39074,S,14731.09074,E,1,12,0.61,278.2,M,12.9,M,,*5F
$GNRMC,230356.00,A,3425.39071,S,14731.09079,E,0.161,,051217,,,A*7F
$GNGGA,230356.00,3425.39071,S,14731.09079,E,1,12,0.61,278.3,M,12.9,M,,*55
$GNRMC,230357.00,A,3425.39069,S,14731.09080,E,0.083,,051217,,,A*7C
$GNGGA,230357.00,3425.39069,S,14731.09080,E,1,12,0.61,278.3,M,12.9,M,,*5B
$GNRMC,230358.00,A,3425.39065,S,14731.09083,E,0.113,,051217,,,A*74
$GNGGA,230358.00,3425.39065,S,14731.09083,E,1,12,0.61,278.4,M,12.9,M,,*5C
$GNRMC,230359.00,A,3425.39060,S,14731.09088,E,0.031,,051217,,,A*7A
$GNGGA,230359.00,3425.39060,S,14731.09088,E,1,12,0.61,278.6,M,12.9,M,,*51
$GNRMC,230400.00,A,3425.39057,S,14731.09092,E,0.021,,051217,,,A*7F
$GNGGA,230400.00,3425.39057,S,14731.09092,E,1,12,0.61,278.7,M,12.9,M,,*54
$GNRMC,230401.00,A,3425.39056,S,14731.09096,E,0.124,,051217,,,A*7F
$GNGGA,230401.00,3425.39056,S,14731.09096,E,1,12,0.61,278.7,M,12.9,M,,*50
$GNRMC,230402.00,A,3425.39050,S,14731.09102,E,0.270,,051217,,,A*74
$GNGGA,230402.00,3425.39050,S,14731.09102,E,1,12,0.61,278.6,M,12.9,M,,*58
$GNRMC,230403.00,A,3425.39048,S,14731.09102,E,0.028,,051217,,,A*73
$GNGGA,230403.00,3425.39048,S,14731.09102,E,1,12,0.61,278.6,M,12.9,M,,*50
$GNRMC,230404.00,A,3425.39051,S,14731.09099,E,0.190,,051217,,,A*7D
$GNGGA,230404.00,3425.39051,S,14731.09099,E,1,12,0.61,278.6,M,12.9,M,,*5C
$GNRMC,230405.00,A,3425.39052,S,14731.09098,E,0.386,,051217,,,A*7B
$GNGGA,230405.00,3425.39052,S,14731.09098,E,1,12,0.61,278.7,M,12.9,M,,*5E
$GNRMC,230406.00,A,3425.39053,S,14731.09097,E,0.131,,051217,,,A*78
$GNGGA,230406.00,3425.39053,S,14731.09097,E,1,12,0.61,278.8,M,12.9,M,,*5C
$GNRMC,230407.00,A,3425.39054,S,14731.09091,E,0.134,,051217,,,A*7D
$GNGGA,230407.00,3425.39054,S,14731.09091,E,1,12,0.61,278.4,M,12.9,M,,*50
$GNRMC,230408.00,A,3425.39049,S,14731.09095,E,0.180,,051217,,,A*75
$GNGGA,230408.00,3425.39049,S,14731.09095,E,1,12,0.61,278.6,M,12.9,M,,*55
$GNRMC,230409.00,A,3425.39043,S,14731.09099,E,0.095,,051217,,,A*77
$GNGGA,230409.00,3425.39043,S,14731.09099,E,1,12,0.61,278.7,M,12.9,M,,*53
$GNRMC,230410.00,A,3425.39045,S,14731.09102,E,0.154,,051217,,,A*76
$GNGGA,230410.00,3425.39045,S,14731.09102,E,1,12,0.61,278.9,M,12.9,M,,*50
$GNRMC,230411.00,A,3425.39044,S,14731.09106,E,0.115,,051217,,,A*77
$GNGGA,230411.00,3425.39044,S,14731.09106,E,1,12,0.61,279.0,M,12.9,M,,*5C
$GNRMC,230412.00,A,3425.39040,S,14731.09112,E,0.117,,051217,,,A*77
$GNGGA,230412.00,3425.39040,S,14731.09112,E,1,12,0.61,279.0,M,12.9,M,,*5E
$GNRMC,230413.00,A,3425.39037,S,14731.09119,E,0.040,,051217,,,A*7E
$GNGGA,230413.00,3425.39037,S,14731.09119,E,1,12,0.61,278.9,M,12.9,M,,*5C
$GNRMC,230414.00,A,3425.39037,S,14731.09120,E,0.162,,051217,,,A*72
$GNGGA,230414.00,3425.39037,S,14731.09120,E,1,12,0.61,278.6,M,12.9,M,,*5E
$GNRMC,230415.00,A,3425.39037,S,14731.09121,E,0.048,,051217,,,A*7B
$GNGGA,230415.00,3425.39037,S,14731.09121,E,1,12,0.61,278.6,M,12.9,M,,*5E
$GNRMC,230416.00,A,3425.39036,S,14731.09125,E,0.070,,051217,,,A*76
$GNGGA,230416.00,3425.39036,S,14731.09125,E,1,12,0.61,278.7,M,12.9,M,,*59
$GNRMC,230417.00,A,3425.39037,S,14731.09127,E,0.042,,051217,,,A*75
$GNGGA,230417.00,3425.39037,S,14731.09127,E,1,12,0.61,278.6,M,12.9,M,,*5A
$GNRMC,230418.00,A,3425.39040,S,14731.09125,E,0.096,,051217,,,A*71
$GNGGA,230418.00,3425.39040,S,14731.09125,E,1,12,0.61,278.6,M,12.9,M,,*57
$GNRMC,230419.00,A,3425.39041,S,14731.09122,E,0.104,,051217,,,A*7C
$GNGGA,230419.00,3425.39041,S,14731.09122,E,1,12,0.61,278.6,M,12.9,M,,*50
$GNRMC,230420.00,A,3425.39037,S,14731.09126,E,0.083,,051217,,,A*7D
$GNGGA,230420.00,3425.39037,S,14731.09126,E,1,12,0.61,278.8,M,12.9,M,,*51
$GNRMC,230421.00,A,3425.39035,S,14731.09128,E,0.064,,051217,,,A*79
$GNGGA,230421.00,3425.39035,S,14731.09128,E,1,12,0.61,278.8,M,12.9,M,,*5C
$GNRMC,230422.00,A,3425.39031,S,14731.09128,E,0.037,,051217,,,A*78
$GNGGA,230422.00,3425.39031,S,14731.09128,E,1,12,0.61,278.8,M,12.9,M,,*5B
$GNRMC,230423.00,A,3425.39029,S,14731.09129,E,0.033,,051217,,,A*75
$GNGGA,230423.00,3425.39029,S,14731.09129,E,1,12,0.61,278.7,M,12.9,M,,*5D
$GNRMC,230424.00,A,3425.39027,S,14731.09133,E,0.128,,051217,,,A*7C
$GNGGA,230424.00,3425.39027,S,14731.09133,E,1,12,0.61,279.0,M,12.9,M,,*59
$GNRMC,230425.00,A,3425.39028,S,14731.09134,E,0.051,,051217,,,A*7A
$GNGGA,230425.00,3425.39028,S,14731.09134,E,1,12,0.61,279.1,M,12.9,M,,*51
$GNRMC,230426.00,A,3425.39026,S,14731.09133,E,0.019,,051217,,,A*7C
$GNGGA,230426.00,3425.39026,S,14731.09133,E,1,12,0.62,279.3,M,12.9,M,,*5A
$GNRMC,230427.00,A,3425.39026,S,14731.09131,E,0.066,,051217,,,A*77
$GNGGA,230427.00,3425.39026,S,14731.09131,E,1,12,0.61,279.4,M,12.9,M,,*5D
$GNRMC,230428.00,A,3425.39029,S,14731.09130,E,0.045,,051217,,,A*77
$GNGGA,230428.00,3425.39029,S,14731.09130,E,1,12,0.61,279.5,M,12.9,M,,*5D
$GNRMC,230429.00,A,3425.39034,S,14731.09127,E,0.024,,051217,,,A*7B
$GNGGA,230429.00,3425.39034,S,14731.09127,E,1,12,0.61,279.2,M,12.9,M,,*51
$GNRMC,230430.00,A,3425.39040,S,14731.09128,E,0.052,,051217,,,A*7E
$GNGGA,230430.00,3425.39040,S,14731.09128,E,1,12,0.61,279.3,M,12.9,M,,*54
$GNRMC,230431.00,A,3425.39039,S,14731.09136,E,0.161,,051217,,,A*7F
$GNGGA,230431.00,3425.39039,S,14731.09136,E,1,12,0.61,279.4,M,12.9,M,,*53
$GNRMC,230432.00,A,3425.39037,S,14731.09140,E,0.114,,051217,,,A*71
$GNGGA,230432.00,3425.39037,S,14731.09140,E,1,12,0.61,279.3,M,12.9,M,,*58
$GNRMC,230433.00,A,3425.39034,S,14731.09148,E,0.061,,051217,,,A*78
$GNGGA,230433.00,3425.39034,S,14731.09148,E,1,12,0.61,279.4,M,12.9,M,,*55
$GNRMC,230434.00,A,3425.39036,S,14731.09147,E,0.081,,051217,,,A*7C
$GNGGA,230434.00,3425.39036,S,14731.09147,E,1,12,0.61,279.9,M,12.9,M,,*52
$GNRMC,230435.00,A,3425.39037,S,14731.09147,E,0.034,,051217,,,A*72
$GNGGA,230435.00,3425.39037,S,14731.09147,E,1,12,0.61,279.9,M,12.9,M,,*52
$GNRMC,230436.00,A,3425.39041,S,14731.09140,E,0.046,,051217,,,A*72
$GNGGA,230436.00,3425.39041,S,14731.09140,E,1,12,0.61,279.8,M,12.9,M,,*56
$GNRMC,230437.00,A,3425.39044,S,14731.09133,E,0.041,,051217,,,A*75
$GNGGA,230437.00,3425.39044,S,14731.09133,E,1,12,0.61,279.9,M,12.9,M,,*57
$GNRMC,230438.00,A,3425.39047,S,14731.09128,E,0.109,,051217,,,A*7E
$GNGGA,230438.00,3425.39047,S,14731.09128,E,1,12,0.61,279.8,M,12.9,M,,*50
$GNRMC,230439.00,A,3425.39053,S,14731.09125,E,0.314,,051217,,,A*79
$GNGGA,230439.00,3425.39053,S,14731.09125,E,1,12,0.61,279.9,M,12.9,M,,*58
$GNRMC,230440.00,A,3425.39063,S,14731.09136,E,0.291,,051217,,,A*7A
$GNGGA,230440.00,3425.39063,S,14731.09136,E,1,12,0.61,280.2,M,12.9,M,,*5A
$GNRMC,230441.00,A,3425.39053,S,14731.09145,E,0.312,,051217,,,A*76
$GNGGA,230441.00,3425.39053,S,14731.09145,E,1,12,0.61,280.5,M,12.9,M,,*5B
$GNRMC,230442.00,A,3425.39052,S,14731.09129,E,0.087,,051217,,,A*71
$GNGGA,230442.00,3425.39052,S,14731.09129,E,1,12,0.61,280.5,M,12.9,M,,*53
$GNRMC,230443.00,A,3425.39049,S,14731.09128,E,0.223,,051217,,,A*77
$GNGGA,230443.00,3425.39049,S,14731.09128,E,1,12,0.61,280.7,M,12.9,M,,*5B
$GNRMC,230444.00,A,3425.39056,S,14731.09129,E,0.448,,051217,,,A*74
$GNGGA,230444.00,3425.39056,S,14731.09129,E,1,12,0.61,280.7,M,12.9,M,,*53
$GNRMC,230445.00,A,3425.39063,S,14731.09125,E,0.172,,051217,,,A*73
$GNGGA,230445.00,3425.39063,S,14731.09125,E,1,12,0.72,280.3,M,12.9,M,,*5E
$GNRMC,230446.00,A,3425.39061,S,14731.09121,E,0.183,,051217,,,A*78
$GNGGA,230446.00,3425.39061,S,14731.09121,E,1,12,0.72,280.4,M,12.9,M,,*5C
$GNRMC,230447.00,A,3425.39058,S,14731.09117,E,0.009,,051217,,,A*75
$GNGGA,230447.00,3425.39058,S,14731.09117,E,1,12,0.63,280.5,M,12.9,M,,*53
$GNRMC,230448.00,A,3425.39049,S,14731.09115,E,0.092,,051217,,,A*7A
$GNGGA,230448.00,3425.39049,S,14731.09115,E,1,12,0.61,280.5,M,12.9,M,,*5C
$GNRMC,230449.00,A,3425.39040,S,14731.09113,E,0.061,,051217,,,A*78
$GNGGA,230449.00,3425.39040,S,14731.09113,E,1,12,0.61,280.7,M,12.9,M,,*50
$GNRMC,230450.00,A,3425.39035,S,14731.09114,E,0.103,,051217,,,A*70
$GNGGA,230450.00,3425.39035,S,14731.09114,E,1,12,0.63,280.5,M,12.9,M,,*5D
$GNRMC,230451.00,A,3425.39032,S,14731.09110,E,0.034,,051217,,,A*77
$GNGGA,230451.00,3425.39032,S,14731.09110,E,1,12,0.63,280.2,M,12.9,M,,*58
$GNRMC,230452.00,A,3425.39027,S,14731.09101,E,0.024,,051217,,,A*71
$GNGGA,230452.00,3425.39027,S,14731.09101,E,1,12,0.66,280.1,M,12.9,M,,*59
$GNRMC,230453.00,A,3425.39023,S,14731.09096,E,0.071,,051217,,,A*7B
$GNGGA,230453.00,3425.39023,S,14731.09096,E,1,12,0.63,279.9,M,12.9,M,,*58
$GNRMC,230454.00,A,3425.39020,S,14731.09090,E,0.073,,051217,,,A*7B
$GNGGA,230454.00,3425.39020,S,14731.09090,E,1,12,0.63,279.7,M,12.9,M,,*54
$GNRMC,230455.00,A,3425.39018,S,14731.09084,E,0.059,,051217,,,A*7C
$GNGGA,230455.00,3425.39018,S,14731.09084,E,1,12,0.63,279.7,M,12.9,M,,*5B
$GNRMC,230456.00,A,3425.39016,S,14731.09080,E,0.167,,051217,,,A*79
$GNGGA,230456.00,3425.39016,S,14731.09080,E,1,12,0.63,279.6,M,12.9,M,,*53
$GNRMC,230457.00,A,3425.39014,S,14731.09077,E,0.030,,051217,,,A*71
$GNGGA,230457.00,3425.39014,S,14731.09077,E,1,12,0.74,279.6,M,12.9,M,,*5E
$GNRMC,230458.00,A,3425.39015,S,14731.09074,E,0.030,,051217,,,A*7C
$GNGGA,230458.00,3425.39015,S,14731.09074,E,1,12,0.74,279.5,M,12.9,M,,*50
$GNRMC,230459.00,A,3425.39017,S,14731.09072,E,0.119,,051217,,,A*73
$GNGGA,230459.00,3425.39017,S,14731.09072,E,1,12,0.72,279.4,M,12.9,M,,*52
$GNRMC,230500.00,A,3425.39019,S,14731.09069,E,0.101,,051217,,,A*73
$GNGGA,230500.00,3425.39019,S,14731.09069,E,1,12,0.72,279.3,M,12.9,M,,*5C
$GNRMC,230501.00,A,3425.39018,S,14731.09066,E,0.078,,051217,,,A*73
$GNGGA,230501.00,3425.39018,S,14731.09066,E,1,12,0.72,279.2,M,12.9,M,,*52
$GNRMC,230502.00,A,3425.39018,S,14731.09067,E,0.180,,051217,,,A*77
$GNGGA,230502.00,3425.39018,S,14731.09067,E,1,12,0.72,279.2,M,12.9,M,,*50
$GNRMC,230503.00,A,3425.39021,S,14731.09068,E,0.116,,051217,,,A*7C
$GNGGA,230503.00,3425.39021,S,14731.09068,E,1,12,0.72,279.2,M,12.9,M,,*54
$GNRMC,230504.00,A,3425.39022,S,14731.09069,E,0.077,,051217,,,A*7F
$GNGGA,230504.00,3425.39022,S,14731.09069,E,1,12,0.72,279.2,M,12.9,M,,*51
$GNRMC,230505.00,A,3425.39020,S,14731.09067,E,0.202,,051217,,,A*72
$GNGGA,230505.00,3425.39020,S,14731.09067,E,1,12,0.72,279.3,M,12.9,M,,*5D
$GNRMC,230506.00,A,3425.39018,S,14731.09062,E,0.172,,051217,,,A*7B
$GNGGA,230506.00,3425.39018,S,14731.09062,E,1,12,0.72,279.3,M,12.9,M,,*50
$GNRMC,230507.00,A,3425.39020,S,14731.09060,E,0.110,,051217,,,A*77
$GNGGA,230507.00,3425.39020,S,14731.09060,E,1,12,0.74,279.2,M,12.9,M,,*5F
$GNRMC,230508.00,A,3425.39036,S,14731.09051,E,0.069,,051217,,,A*72
$GNGGA,230508.00,3425.39036,S,14731.09051,E,1,12,0.72,278.7,M,12.9,M,,*57
$GNRMC,230509.00,A,3425.39039,S,14731.09050,E,0.040,,051217,,,A*76
$GNGGA,230509.00,3425.39039,S,14731.09050,E,1,12,0.65,278.7,M,12.9,M,,*5E
$GNRMC,230510.00,A,3425.39050,S,14731.09044,E,0.292,,051217,,,A*79
$GNGGA,230510.00,3425.39050,S,14731.09044,E,1,12,0.65,278.4,M,12.9,M,,*5F
$GNRMC,230511.00,A,3425.39046,S,14731.09044,E,0.141,,051217,,,A*72
$GNGGA,230511.00,3425.39046,S,14731.09044,E,1,12,0.67,278.5,M,12.9,M,,*5A
$GNRMC,230512.00,A,3425.39046,S,14731.09044,E,0.229,,051217,,,A*7C
$GNGGA,230512.00,3425.39046,S,14731.09044,E,1,12,0.65,278.4,M,12.9,M,,*5A
$GNRMC,230513.00,A,3425.39058,S,14731.09037,E,0.309,,051217,,,A*75
$GNGGA,230513.00,3425.39058,S,14731.09037,E,1,12,0.65,278.1,M,12.9,M,,*55
$GNRMC,230514.00,A,3425.39062,S,14731.09033,E,0.104,,051217,,,A*70
$GNGGA,230514.00,3425.39062,S,14731.09033,E,1,12,0.65,278.1,M,12.9,M,,*5F
$GNRMC,230515.00,A,3425.39066,S,14731.09027,E,0.159,,051217,,,A*78
$GNGGA,230515.00,3425.39066,S,14731.09027,E,1,12,0.65,278.1,M,12.9,M,,*5F
$GNRMC,230516.00,A,3425.39072,S,14731.09029,E,0.089,,051217,,,A*7C
$GNGGA,230516.00,3425.39072,S,14731.09029,E,1,12,0.68,277.9,M,12.9,M,,*5D
$GNRMC,230517.00,A,3425.39075,S,14731.09033,E,0.075,,051217,,,A*72
$GNGGA,230517.00,3425.39075,S,14731.09033,E,1,12,0.65,278.0,M,12.9,M,,*5B
$GNRMC,230518.00,A,3425.39094,S,14731.09026,E,0.109,,051217,,,A*7C
$GNGGA,230518.00,3425.39094,S,14731.09026,E,1,12,0.65,277.7,M,12.9,M,,*57
$GNRMC,230519.00,A,3425.39100,S,14731.09019,E,0.094,,051217,,,A*78
$GNGGA,230519.00,3425.39100,S,14731.09019,E,1,12,0.65,277.4,M,12.9,M,,*55
$GNRMC,230520.00,A,3425.39098,S,14731.09018,E,0.073,,051217,,,A*7A
$GNGGA,230520.00,3425.39098,S,14731.09018,E,1,12,0.58,277.4,M,12.9,M,,*50
$GNRMC,230521.00,A,3425.39093,S,14731.09016,E,0.030,,051217,,,A*79
$GNGGA,230521.00,3425.39093,S,14731.09016,E,1,12,0.58,277.4,M,12.9,M,,*54
$GNRMC,230522.00,A,3425.39094,S,14731.09013,E,0.102,,051217,,,A*78
$GNGGA,230522.00,3425.39094,S,14731.09013,E,1,12,0.58,277.4,M,12.9,M,,*55
$GNRMC,230523.00,A,3425.39092,S,14731.09011,E,0.103,,051217,,,A*7C
$GNGGA,230523.00,3425.39092,S,14731.09011,E,1,12,0.58,277.4,M,12.9,M,,*50
$GNRMC,230524.00,A,3425.39087,S,14731.09011,E,0.072,,051217,,,A*78
$GNGGA,230524.00,3425.39087,S,14731.09011,E,1,12,0.58,277.3,M,12.9,M,,*54
$GNRMC,230525.00,A,3425.39086,S,14731.09012,E,0.023,,051217,,,A*7F
$GNGGA,230525.00,3425.39086,S,14731.09012,E,1,12,0.59,277.3,M,12.9,M,,*56
$GNRMC,230526.00,A,3425.39083,S,14731.09009,E,0.161,,051217,,,A*74
$GNGGA,230526.00,3425.39083,S,14731.09009,E,1,12,0.59,277.2,M,12.9,M,,*5B
$GNRMC,230527.00,A,3425.39081,S,14731.09007,E,0.070,,051217,,,A*78
$GNGGA,230527.00,3425.39081,S,14731.09007,E,1,12,0.59,277.2,M,12.9,M,,*56
$GNRMC,230528.00,A,3425.39083,S,14731.08999,E,0.053,,051217,,,A*7B
$GNGGA,230528.00,3425.39083,S,14731.08999,E,1,12,0.59,277.1,M,12.9,M,,*57
$GNRMC,230529.00,A,3425.39084,S,14731.08996,E,0.049,,051217,,,A*79
$GNGGA,230529.00,3425.39084,S,14731.08996,E,1,12,0.59,277.1,M,12.9,M,,*5E
$GNRMC,230530.00,A,3425.39088,S,14731.08992,E,0.159,,051217,,,A*79
$GNGGA,230530.00,3425.39088,S,14731.08992,E,1,12,0.59,277.1,M,12.9,M,,*5E
$GNRMC,230531.00,A,3425.39087,S,14731.08994,E,0.130,,051217,,,A*7E
$GNGGA,230531.00,3425.39087,S,14731.08994,E,1,12,0.59,277.1,M,12.9,M,,*56
$GNRMC,230532.00,A,3425.39076,S,14731.09001,E,0.087,,051217,,,A*7A
$GNGGA,230532.00,3425.39076,S,14731.09001,E,1,12,0.59,277.4,M,12.9,M,,*5A
$GNRMC,230533.00,A,3425.39068,S,14731.09006,E,0.113,,051217,,,A*7F
$GNGGA,230533.00,3425.39068,S,14731.09006,E,1,12,0.59,277.6,M,12.9,M,,*51
$GNRMC,230534.00,A,3425.39062,S,14731.08999,E,0.037,,051217,,,A*7B
$GNGGA,230534.00,3425.39062,S,14731.08999,E,1,12,0.59,277.5,M,12.9,M,,*51
$GNRMC,230535.00,A,3425.39055,S,14731.09004,E,0.069,,051217,,,A*79
$GNGGA,230535.00,3425.39055,S,14731.09004,E,1,12,0.59,277.8,M,12.9,M,,*55
$GNRMC,230536.00,A,3425.39054,S,14731.09005,E,0.062,,051217,,,A*71
$GNGGA,230536.00,3425.39054,S,14731.09005,E,1,12,0.59,277.7,M,12.9,M,,*59
$GNRMC,230537.00,A,3425.39054,S,14731.09007,E,0.143,,051217,,,A*70
$GNGGA,230537.00,3425.39054,S,14731.09007,E,1,12,0.59,277.7,M,12.9,M,,*5A
$GNRMC,230538.00,A,3425.39051,S,14731.09009,E,0.380,,051217,,,A*79
$GNGGA,230538.00,3425.39051,S,14731.09009,E,1,12,0.59,277.9,M,12.9,M,,*50
$GNRMC,230539.00,A,3425.39046,S,14731.09014,E,0.128,,051217,,,A*72
$GNGGA,230539.00,3425.39046,S,14731.09014,E,1,12,0.59,277.9,M,12.9,M,,*5B
$GNRMC,230540.00,A,3425.39043,S,14731.09020,E,0.014,,051217,,,A*70
$GNGGA,230540.00,3425.39043,S,14731.09020,E,1,12,0.59,278.0,M,12.9,M,,*51
$GNRMC,230541.00,A,3425.39045,S,14731.09022,E,0.192,,051217,,,A*7A
$GNGGA,230541.00,3425.39045,S,14731.09022,E,1,12,0.59,278.1,M,12.9,M,,*55
$GNRMC,230542.00,A,3425.39048,S,14731.09024,E,0.069,,051217,,,A*77
$GNGGA,230542.00,3425.39048,S,14731.09024,E,1,12,0.59,278.2,M,12.9,M,,*5E
$GNRMC,230543.00,A,3425.39049,S,14731.09027,E,0.016,,051217,,,A*7C
$GNGGA,230543.00,3425.39049,S,14731.09027,E,1,12,0.59,278.2,M,12.9,M,,*5D
$GNRMC,230544.00,A,3425.39054,S,14731.09025,E,0.403,,051217,,,A*75
$GNGGA,230544.00,3425.39054,S,14731.09025,E,1,12,0.59,278.1,M,12.9,M,,*57
$GNRMC,230545.00,A,3425.39059,S,14731.09023,E,0.204,,051217,,,A*7E
$GNGGA,230545.00,3425.39059,S,14731.09023,E,1,12,0.59,278.2,M,12.9,M,,*5E
$GNRMC,230546.00,A,3425.39059,S,14731.09022,E,0.143,,051217,,,A*7C
$GNGGA,230546.00,3425.39059,S,14731.09022,E,1,12,0.59,278.2,M,12.9,M,,*5C
$GNRMC,230547.00,A,3425.39062,S,14731.09023,E,0.033,,051217,,,A*72
$GNGGA,230547.00,3425.39062,S,14731.09023,E,1,12,0.58,278.2,M,12.9,M,,*55
$GNRMC,230548.00,A,3425.39059,S,14731.09021,E,0.142,,051217,,,A*70
$GNGGA,230548.00,3425.39059,S,14731.09021,E,1,12,0.58,278.3,M,12.9,M,,*51
$GNRMC,230549.00,A,3425.39052,S,14731.09029,E,0.108,,051217,,,A*7C
$GNGGA,230549.00,3425.39052,S,14731.09029,E,1,12,0.58,278.6,M,12.9,M,,*56
$GNRMC,230550.00,A,3425.39047,S,14731.09029,E,0.171,,051217,,,A*7E
$GNGGA,230550.00,3425.39047,S,14731.09029,E,1,12,0.58,278.7,M,12.9,M,,*5B
$GNRMC,230551.00,A,3425.39045,S,14731.09028,E,0.212,,051217,,,A*7A
$GNGGA,230551.00,3425.39045,S,14731.09028,E,1,12,0.58,278.9,M,12.9,M,,*57
$GNRMC,230552.00,A,3425.39036,S,14731.09040,E,0.110,,051217,,,A*72
$GNGGA,230552.00,3425.39036,S,14731.09040,E,1,12,0.58,279.4,M,12.9,M,,*52
$GNRMC,230553.00,A,3425.39033,S,14731.09044,E,0.081,,051217,,,A*7B
$GNGGA,230553.00,3425.39033,S,14731.09044,E,1,12,0.58,279.6,M,12.9,M,,*50
$GNRMC,230554.00,A,3425.39032,S,14731.09045,E,0.056,,051217,,,A*76
$GNGGA,230554.00,3425.39032,S,14731.09045,E,1,12,0.58,279.6,M,12.9,M,,*57
$GNRMC,230555.00,A,3425.39032,S,14731.09048,E,0.218,,051217,,,A*72
$GNGGA,230555.00,3425.39032,S,14731.09048,E,1,12,0.60,279.7,M,12.9,M,,*51
$GNRMC,230556.00,A,3425.39025,S,14731.09049,E,0.180,,051217,,,A*74
$GNGGA,230556.00,3425.39025,S,14731.09049,E,1,12,0.58,280.0,M,12.9,M,,*5F
$GNRMC,230557.00,A,3425.39021,S,14731.09048,E,0.313,,051217,,,A*78
$GNGGA,230557.00,3425.39021,S,14731.09048,E,1,12,0.58,280.1,M,12.9,M,,*5A
$GNRMC,230558.00,A,3425.39020,S,14731.09047,E,0.115,,051217,,,A*7D
$GNGGA,230558.00,3425.39020,S,14731.09047,E,1,12,0.58,280.1,M,12.9,M,,*5B
$GNRMC,230559.00,A,3425.39019,S,14731.09040,E,0.083,,051217,,,A*7F
$GNGGA,230559.00,3425.39019,S,14731.09040,E,1,12,0.58,280.1,M,12.9,M,,*57
$GNRMC,230600.00,A,3425.39014,S,14731.09034,E,0.106,,051217,,,A*72
$GNGGA,230600.00,3425.39014,S,14731.09034,E,1,12,0.58,280.3,M,12.9,M,,*54
$GNRMC,230601.00,A,3425.39010,S,14731.09033,E,0.125,,051217,,,A*71
$GNGGA,230601.00,3425.39010,S,14731.09033,E,1,12,0.58,280.4,M,12.9,M,,*51
$GNRMC,230602.00,A,3425.39008,S,14731.09033,E,0.133,,051217,,,A*7C
$GNGGA,230602.00,3425.39008,S,14731.09033,E,1,12,0.58,280.5,M,12.9,M,,*5A
$GNRMC,230603.00,A,3425.39006,S,14731.09035,E,0.396,,051217,,,A*78
$GNGGA,230603.00,3425.39006,S,14731.09035,E,1,12,0.63,280.5,M,12.9,M,,*5B
$GNRMC,230604.00,A,3425.39002,S,14731.09038,E,0.423,,051217,,,A*7F
$GNGGA,230604.00,3425.39002,S,14731.09038,E,1,12,0.63,280.4,M,12.9,M,,*54
$GNRMC,230605.00,A,3425.38992,S,14731.09042,E,0.531,,051217,,,A*70
$GNGGA,230605.00,3425.38992,S,14731.09042,E,1,12,0.63,280.6,M,12.9,M,,*5B
$GNRMC,230606.00,A,3425.38980,S,14731.09047,E,0.419,,051217,,,A*7E
$GNGGA,230606.00,3425.38980,S,14731.09047,E,1,12,0.63,280.9,M,12.9,M,,*51
$GNRMC,230607.00,A,3425.38988,S,14731.09047,E,0.169,,051217,,,A*75
$GNGGA,230607.00,3425.38988,S,14731.09047,E,1,12,0.63,280.9,M,12.9,M,,*58
$GNRMC,230608.00,A,3425.38992,S,14731.09043,E,0.114,,051217,,,A*7F
$GNGGA,230608.00,3425.38992,S,14731.09043,E,1,12,0.60,281.0,M,12.9,M,,*53
$GNRMC,230609.00,A,3425.39001,S,14731.09035,E,0.191,,051217,,,A*70
$GNGGA,230609.00,3425.39001,S,14731.09035,E,1,12,0.58,281.0,M,12.9,M,,*5A
$GNRMC,230610.00,A,3425.38995,S,14731.09039,E,0.021,,051217,,,A*7B
$GNGGA,230610.00,3425.38995,S,14731.09039,E,1,12,0.58,281.4,M,12.9,M,,*5F
$GNRMC,230611.00,A,3425.38987,S,14731.09046,E,0.032,,051217,,,A*73
$GNGGA,230611.00,3425.38987,S,14731.09046,E,1,12,0.58,281.7,M,12.9,M,,*56
$GNRMC,230612.00,A,3425.38990,S,14731.09044,E,0.065,,051217,,,A*76
$GNGGA,230612.00,3425.38990,S,14731.09044,E,1,12,0.58,281.6,M,12.9,M,,*50
$GNRMC,230613.00,A,3425.38967,S,14731.09052,E,0.409,,051217,,,A*76
$GNGGA,230613.00,3425.38967,S,14731.09052,E,1,12,0.61,282.3,M,12.9,M,,*52
$GNRMC,230614.00,A,3425.38948,S,14731.09059,E,0.662,,051217,,,A*78
$GNGGA,230614.00,3425.38948,S,14731.09059,E,1,12,0.59,282.7,M,12.9,M,,*5C
$GNRMC,230615.00,A,3425.38963,S,14731.09062,E,0.275,,051217,,,A*7A
$GNGGA,230615.00,3425.38963,S,14731.09062,E,1,12,0.66,282.2,M,12.9,M,,*55
$GNRMC,230616.00,A,3425.38988,S,14731.09030,E,0.024,,051217,,,A*7D
$GNGGA,230616.00,3425.38988,S,14731.09030,E,1,12,0.66,281.3,M,12.9,M,,*56
$GNRMC,230617.00,A,3425.38980,S,14731.09037,E,0.043,,051217,,,A*72
$GNGGA,230617.00,3425.38980,S,14731.09037,E,1,12,0.66,281.3,M,12.9,M,,*58
$GNRMC,230618.00,A,3425.38981,S,14731.09047,E,0.045,,051217,,,A*7D
$GNGGA,230618.00,3425.38981,S,14731.09047,E,1,12,0.66,281.4,M,12.9,M,,*56
$GNRMC,230619.00,A,3425.38981,S,14731.09050,E,0.073,,051217,,,A*7F
$GNGGA,230619.00,3425.38981,S,14731.09050,E,1,12,0.60,281.3,M,12.9,M,,*50
$GNRMC,230620.00,A,3425.38978,S,14731.09056,E,0.043,,051217,,,A*76
$GNGGA,230620.00,3425.38978,S,14731.09056,E,1,12,0.59,281.4,M,12.9,M,,*57
$GNRMC,230621.00,A,3425.38977,S,14731.09057,E,0.051,,051217,,,A*7A
$GNGGA,230621.00,3425.38977,S,14731.09057,E,1,12,0.59,281.4,M,12.9,M,,*58
$GNRMC,230622.00,A,3425.38981,S,14731.09056,E,0.129,,051217,,,A*7F
$GNGGA,230622.00,3425.38981,S,14731.09056,E,1,12,0.59,281.4,M,12.9,M,,*53
$GNRMC,230623.00,A,3425.38988,S,14731.09059,E,0.275,,051217,,,A*72
